{"type":"FeatureCollection", "features": [
{"type":"Feature","geometry":{"type":"Point","coordinates":[101.760049,3.150318]},"properties":{"name":"AMPANG","line":"AG","mode":"LRT"}},
{"type":"Feature","geometry":{"type":"Point","coordinates":[101.756677,3.140575]},"properties":{"name":"CAHAYA","line":"AG","mode":"LRT"}},
{"type":"Feature","geometry":{"type":"Point","coordinates":[101.752979,3.138324]},"properties":{"name":"CEMPAKA","line":"AG","mode":"LRT"}},
{"type":"Feature","geometry":{"type":"Point","coordinates":[101.746509,3.134581]},"properties":{"name":"PANDAN INDAH","line":"AG","mode":"LRT"}},
{"type":"Feature","geometry":{"type":"Point","coordinates":[101.739122,3.130141]},"properties":{"name":"PANDAN JAYA","line":"AG","mode":"LRT"}},
{"type":"Feature","geometry":{"type":"Point","coordinates":[101.727283,3.12329]},"properties":{"name":"MALURI","line":"AG","mode":"LRT"}},
{"type":"Feature","geometry":{"type":"Point","coordinates":[101.717922,3.120973]},"properties":{"name":"MIHARJA","line":"AG","mode":"LRT"}},
{"type":"Feature","geometry":{"type":"Point","coordinates":[101.715637,3.128105]},"properties":{"name":"CHAN SOW LIN","line":"AG","mode":"LRT"}},
{"type":"Feature","geometry":{"type":"Point","coordinates":[101.711957,3.134879]},"properties":{"name":"PUDU","line":"AG","mode":"LRT"}},
{"type":"Feature","geometry":{"type":"Point","coordinates":[101.705984,3.140012]},"properties":{"name":"HANG TUAH","line":"AG","mode":"LRT"}},
{"type":"Feature","geometry":{"type":"Point","coordinates":[101.702105,3.144049]},"properties":{"name":"PLAZA RAKYAT","line":"AG","mode":"LRT"}},
{"type":"Feature","geometry":{"type":"Point","coordinates":[101.696377,3.14927]},"properties":{"name":"MASJID JAMEK","line":"AG","mode":"LRT"}},
{"type":"Feature","geometry":{"type":"Point","coordinates":[101.694485,3.155567]},"properties":{"name":"BANDARAYA - UOB","line":"AG","mode":"LRT"}},
{"type":"Feature","geometry":{"type":"Point","coordinates":[101.694109,3.161245]},"properties":{"name":"SULTAN ISMAIL","line":"AG","mode":"LRT"}},
{"type":"Feature","geometry":{"type":"Point","coordinates":[101.693586,3.166333]},"properties":{"name":"PWTC","line":"AG","mode":"LRT"}},
{"type":"Feature","geometry":{"type":"Point","coordinates":[101.695367,3.173497]},"properties":{"name":"TITIWANGSA","line":"AG","mode":"LRT"}},
{"type":"Feature","geometry":{"type":"Point","coordinates":[101.695542,3.178484]},"properties":{"name":"SENTUL","line":"AG","mode":"LRT"}},
{"type":"Feature","geometry":{"type":"Point","coordinates":[101.695217,3.185897]},"properties":{"name":"SENTUL TIMUR","line":"AG","mode":"LRT"}},
{"type":"Feature","geometry":{"type":"Point","coordinates":[101.575462,2.996227]},"properties":{"name":"PUTRA HEIGHTS","line":"KJ","mode":"LRT"}},
{"type":"Feature","geometry":{"type":"Point","coordinates":[101.572281,3.009421]},"properties":{"name":"SUBANG ALAM","line":"KJ","mode":"LRT"}},
{"type":"Feature","geometry":{"type":"Point","coordinates":[101.572029,3.023151]},"properties":{"name":"ALAM MEGAH","line":"KJ","mode":"LRT"}},
{"type":"Feature","geometry":{"type":"Point","coordinates":[101.581711,3.029881]},"properties":{"name":"USJ 21","line":"KJ","mode":"LRT"}},
{"type":"Feature","geometry":{"type":"Point","coordinates":[101.588348,3.035062]},"properties":{"name":"WAWASAN","line":"KJ","mode":"LRT"}},
{"type":"Feature","geometry":{"type":"Point","coordinates":[101.590233,3.04815]},"properties":{"name":"TAIPAN","line":"KJ","mode":"LRT"}},
{"type":"Feature","geometry":{"type":"Point","coordinates":[101.592194,3.054956]},"properties":{"name":"USJ 7","line":"KJ","mode":"LRT"}},
{"type":"Feature","geometry":{"type":"Point","coordinates":[101.585945,3.067182]},"properties":{"name":"SS 18","line":"KJ","mode":"LRT"}},
{"type":"Feature","geometry":{"type":"Point","coordinates":[101.585983,3.075972]},"properties":{"name":"SS 15","line":"KJ","mode":"LRT"}},
{"type":"Feature","geometry":{"type":"Point","coordinates":[101.588127,3.08466]},"properties":{"name":"SUBANG JAYA","line":"KJ","mode":"LRT"}},
{"type":"Feature","geometry":{"type":"Point","coordinates":[101.590622,3.094732]},"properties":{"name":"CGC GLENMARIE","line":"KJ","mode":"LRT"}},
{"type":"Feature","geometry":{"type":"Point","coordinates":[101.586372,3.108643]},"properties":{"name":"ARA DAMANSARA","line":"KJ","mode":"LRT"}},
{"type":"Feature","geometry":{"type":"Point","coordinates":[101.591034,3.112094]},"properties":{"name":"LEMBAH SUBANG","line":"KJ","mode":"LRT"}},
{"type":"Feature","geometry":{"type":"Point","coordinates":[101.6043,3.112497]},"properties":{"name":"KELANA JAYA","line":"KJ","mode":"LRT"}},
{"type":"Feature","geometry":{"type":"Point","coordinates":[101.612856,3.11079]},"properties":{"name":"TAMAN BAHAGIA","line":"KJ","mode":"LRT"}},
{"type":"Feature","geometry":{"type":"Point","coordinates":[101.623192,3.104716]},"properties":{"name":"TAMAN PARAMOUNT","line":"KJ","mode":"LRT"}},
{"type":"Feature","geometry":{"type":"Point","coordinates":[101.637695,3.104343]},"properties":{"name":"ASIA JAYA","line":"KJ","mode":"LRT"}},
{"type":"Feature","geometry":{"type":"Point","coordinates":[101.645248,3.104086]},"properties":{"name":"TAMAN JAYA","line":"KJ","mode":"LRT"}},
{"type":"Feature","geometry":{"type":"Point","coordinates":[101.661639,3.114616]},"properties":{"name":"UNIVERSITI","line":"KJ","mode":"LRT"}},
{"type":"Feature","geometry":{"type":"Point","coordinates":[101.668572,3.115506]},"properties":{"name":"KERINCHI","line":"KJ","mode":"LRT"}},
{"type":"Feature","geometry":{"type":"Point","coordinates":[101.672897,3.118735]},"properties":{"name":"ABDULLAH HUKUM","line":"KJ","mode":"LRT"}},
{"type":"Feature","geometry":{"type":"Point","coordinates":[101.679062,3.127588]},"properties":{"name":"BANK RAKYAT BANGSAR","line":"KJ","mode":"LRT"}},
{"type":"Feature","geometry":{"type":"Point","coordinates":[101.68625,3.13442]},"properties":{"name":"KL SENTRAL - REDONE","line":"KJ","mode":"LRT"}},
{"type":"Feature","geometry":{"type":"Point","coordinates":[101.69531,3.142439]},"properties":{"name":"PASAR SENI","line":"KJ","mode":"LRT"}},
{"type":"Feature","geometry":{"type":"Point","coordinates":[101.696815,3.149714]},"properties":{"name":"MASJID JAMEK","line":"KJ","mode":"LRT"}},
{"type":"Feature","geometry":{"type":"Point","coordinates":[101.701975,3.156942]},"properties":{"name":"DANG WANGI","line":"KJ","mode":"LRT"}},
{"type":"Feature","geometry":{"type":"Point","coordinates":[101.706608,3.161386]},"properties":{"name":"KAMPUNG BARU - CBP COOPBANK PERTAMA","line":"KJ","mode":"LRT"}},
{"type":"Feature","geometry":{"type":"Point","coordinates":[101.713287,3.158935]},"properties":{"name":"KLCC","line":"KJ","mode":"LRT"}},
{"type":"Feature","geometry":{"type":"Point","coordinates":[101.719017,3.159894]},"properties":{"name":"AMPANG PARK","line":"KJ","mode":"LRT"}},
{"type":"Feature","geometry":{"type":"Point","coordinates":[101.724489,3.164406]},"properties":{"name":"DAMAI","line":"KJ","mode":"LRT"}},
{"type":"Feature","geometry":{"type":"Point","coordinates":[101.73184,3.16509]},"properties":{"name":"DATO' KERAMAT","line":"KJ","mode":"LRT"}},
{"type":"Feature","geometry":{"type":"Point","coordinates":[101.735344,3.167204]},"properties":{"name":"JELATEK","line":"KJ","mode":"LRT"}},
{"type":"Feature","geometry":{"type":"Point","coordinates":[101.73584,3.17576]},"properties":{"name":"SETIAWANGSA","line":"KJ","mode":"LRT"}},
{"type":"Feature","geometry":{"type":"Point","coordinates":[101.73747,3.199176]},"properties":{"name":"SRI RAMPAI","line":"KJ","mode":"LRT"}},
{"type":"Feature","geometry":{"type":"Point","coordinates":[101.731796,3.205751]},"properties":{"name":"WANGSA MAJU","line":"KJ","mode":"LRT"}},
{"type":"Feature","geometry":{"type":"Point","coordinates":[101.72197,3.219558]},"properties":{"name":"TAMAN MELATI","line":"KJ","mode":"LRT"}},
{"type":"Feature","geometry":{"type":"Point","coordinates":[101.724427,3.231793]},"properties":{"name":"GOMBAK","line":"KJ","mode":"LRT"}},
{"type":"Feature","geometry":{"type":"Point","coordinates":[101.575521,2.996016]},"properties":{"name":"PUTRA HEIGHTS","line":"PH","mode":"LRT"}},
{"type":"Feature","geometry":{"type":"Point","coordinates":[101.596692,2.999808]},"properties":{"name":"PUCHONG PRIMA","line":"PH","mode":"LRT"}},
{"type":"Feature","geometry":{"type":"Point","coordinates":[101.605021,3.007913]},"properties":{"name":"PUCHONG PERDANA","line":"PH","mode":"LRT"}},
{"type":"Feature","geometry":{"type":"Point","coordinates":[101.612855,3.017111]},"properties":{"name":"BANDAR PUTERI","line":"PH","mode":"LRT"}},
{"type":"Feature","geometry":{"type":"Point","coordinates":[101.613514,3.022814]},"properties":{"name":"TAMAN PERINDUSTRIAN PUCHONG","line":"PH","mode":"LRT"}},
{"type":"Feature","geometry":{"type":"Point","coordinates":[101.616057,3.033194]},"properties":{"name":"PUSAT BANDAR PUCHONG","line":"PH","mode":"LRT"}},
{"type":"Feature","geometry":{"type":"Point","coordinates":[101.62095,3.048101]},"properties":{"name":"IOI PUCHONG JAYA","line":"PH","mode":"LRT"}},
{"type":"Feature","geometry":{"type":"Point","coordinates":[101.644294,3.050506]},"properties":{"name":"KINRARA","line":"PH","mode":"LRT"}},
{"type":"Feature","geometry":{"type":"Point","coordinates":[101.656468,3.0547]},"properties":{"name":"ALAM SUTERA","line":"PH","mode":"LRT"}},
{"type":"Feature","geometry":{"type":"Point","coordinates":[101.662552,3.062229]},"properties":{"name":"MUHIBBAH","line":"PH","mode":"LRT"}},
{"type":"Feature","geometry":{"type":"Point","coordinates":[101.670555,3.062131]},"properties":{"name":"AWAN BESAR","line":"PH","mode":"LRT"}},
{"type":"Feature","geometry":{"type":"Point","coordinates":[101.687074,3.061445]},"properties":{"name":"SRI PETALING","line":"PH","mode":"LRT"}},
{"type":"Feature","geometry":{"type":"Point","coordinates":[101.692125,3.058196]},"properties":{"name":"BUKIT JALIL","line":"PH","mode":"LRT"}},
{"type":"Feature","geometry":{"type":"Point","coordinates":[101.708062,3.063842]},"properties":{"name":"SUNGAI BESI","line":"PH","mode":"LRT"}},
{"type":"Feature","geometry":{"type":"Point","coordinates":[101.711107,3.076058]},"properties":{"name":"BANDAR TASIK SELATAN","line":"PH","mode":"LRT"}},
{"type":"Feature","geometry":{"type":"Point","coordinates":[101.712466,3.089576]},"properties":{"name":"BANDAR TUN RAZAK","line":"PH","mode":"LRT"}},
{"type":"Feature","geometry":{"type":"Point","coordinates":[101.706179,3.102201]},"properties":{"name":"SALAK SELATAN","line":"PH","mode":"LRT"}},
{"type":"Feature","geometry":{"type":"Point","coordinates":[101.714178,3.112609]},"properties":{"name":"CHERAS","line":"PH","mode":"LRT"}},
{"type":"Feature","geometry":{"type":"Point","coordinates":[101.715637,3.128105]},"properties":{"name":"CHAN SOW LIN","line":"PH","mode":"LRT"}},
{"type":"Feature","geometry":{"type":"Point","coordinates":[101.711957,3.134879]},"properties":{"name":"PUDU","line":"PH","mode":"LRT"}},
{"type":"Feature","geometry":{"type":"Point","coordinates":[101.705984,3.140012]},"properties":{"name":"HANG TUAH","line":"PH","mode":"LRT"}},
{"type":"Feature","geometry":{"type":"Point","coordinates":[101.702105,3.144049]},"properties":{"name":"PLAZA RAKYAT","line":"PH","mode":"LRT"}},
{"type":"Feature","geometry":{"type":"Point","coordinates":[101.696377,3.14927]},"properties":{"name":"MASJID JAMEK","line":"PH","mode":"LRT"}},
{"type":"Feature","geometry":{"type":"Point","coordinates":[101.694485,3.155567]},"properties":{"name":"BANDARAYA - UOB","line":"PH","mode":"LRT"}},
{"type":"Feature","geometry":{"type":"Point","coordinates":[101.694109,3.161245]},"properties":{"name":"SULTAN ISMAIL","line":"PH","mode":"LRT"}},
{"type":"Feature","geometry":{"type":"Point","coordinates":[101.693586,3.166333]},"properties":{"name":"PWTC","line":"PH","mode":"LRT"}},
{"type":"Feature","geometry":{"type":"Point","coordinates":[101.695367,3.173497]},"properties":{"name":"TITIWANGSA","line":"PH","mode":"LRT"}},
{"type":"Feature","geometry":{"type":"Point","coordinates":[101.695542,3.178484]},"properties":{"name":"SENTUL","line":"PH","mode":"LRT"}},
{"type":"Feature","geometry":{"type":"Point","coordinates":[101.695217,3.185897]},"properties":{"name":"SENTUL TIMUR","line":"PH","mode":"LRT"}},
{"type":"Feature","geometry":{"type":"Point","coordinates":[101.572052,3.176146]},"properties":{"name":"KWASA DAMANSARA","line":"MRT","mode":"MRT"}},
{"type":"Feature","geometry":{"type":"Point","coordinates":[101.564651,3.170112]},"properties":{"name":"KWASA SENTRAL","line":"MRT","mode":"MRT"}},
{"type":"Feature","geometry":{"type":"Point","coordinates":[101.57869,3.150134]},"properties":{"name":"KOTA DAMANSARA","line":"MRT","mode":"MRT"}},
{"type":"Feature","geometry":{"type":"Point","coordinates":[101.593925,3.14948]},"properties":{"name":"SURIAN","line":"MRT","mode":"MRT"}},
{"type":"Feature","geometry":{"type":"Point","coordinates":[101.609077,3.155301]},"properties":{"name":"MUTIARA DAMANSARA","line":"MRT","mode":"MRT"}},
{"type":"Feature","geometry":{"type":"Point","coordinates":[101.618599,3.14671]},"properties":{"name":"BANDAR UTAMA","line":"MRT","mode":"MRT"}},
{"type":"Feature","geometry":{"type":"Point","coordinates":[101.630539,3.13613]},"properties":{"name":"TAMAN TUN DR ISMAIL","line":"MRT","mode":"MRT"}},
{"type":"Feature","geometry":{"type":"Point","coordinates":[101.642471,3.129864]},"properties":{"name":"PHILEO DAMANSARA","line":"MRT","mode":"MRT"}},
{"type":"Feature","geometry":{"type":"Point","coordinates":[101.662857,3.143444]},"properties":{"name":"PUSAT BANDAR DAMANSARA","line":"MRT","mode":"MRT"}},
{"type":"Feature","geometry":{"type":"Point","coordinates":[101.665497,3.150977]},"properties":{"name":"SEMANTAN","line":"MRT","mode":"MRT"}},
{"type":"Feature","geometry":{"type":"Point","coordinates":[101.687336,3.137317]},"properties":{"name":"MUZIUM NEGARA","line":"MRT","mode":"MRT"}},
{"type":"Feature","geometry":{"type":"Point","coordinates":[101.6955642,3.142293265]},"properties":{"name":"PASAR SENI","line":"MRT","mode":"MRT"}},
{"type":"Feature","geometry":{"type":"Point","coordinates":[101.70205,3.141969]},"properties":{"name":"MERDEKA","line":"MRT","mode":"MRT"}},
{"type":"Feature","geometry":{"type":"Point","coordinates":[101.710947,3.146503]},"properties":{"name":"BUKIT BINTANG ","line":"MRT","mode":"MRT"}},
{"type":"Feature","geometry":{"type":"Point","coordinates":[101.720156,3.142403]},"properties":{"name":"TUN RAZAK EXCHANGE","line":"MRT","mode":"MRT"}},
{"type":"Feature","geometry":{"type":"Point","coordinates":[101.722962,3.132829]},"properties":{"name":"COCHRANE","line":"MRT","mode":"MRT"}},
{"type":"Feature","geometry":{"type":"Point","coordinates":[101.727809,3.123623]},"properties":{"name":"MALURI","line":"MRT","mode":"MRT"}},
{"type":"Feature","geometry":{"type":"Point","coordinates":[101.729371,3.112547]},"properties":{"name":"TAMAN PERTAMA","line":"MRT","mode":"MRT"}},
{"type":"Feature","geometry":{"type":"Point","coordinates":[101.732186,3.104505]},"properties":{"name":"TAMAN MIDAH","line":"MRT","mode":"MRT"}},
{"type":"Feature","geometry":{"type":"Point","coordinates":[101.740453,3.090989]},"properties":{"name":"TAMAN MUTIARA","line":"MRT","mode":"MRT"}},
{"type":"Feature","geometry":{"type":"Point","coordinates":[101.74522,3.079172]},"properties":{"name":"TAMAN CONNAUGHT","line":"MRT","mode":"MRT"}},
{"type":"Feature","geometry":{"type":"Point","coordinates":[101.763552,3.071578]},"properties":{"name":"TAMAN SUNTEX","line":"MRT","mode":"MRT"}},
{"type":"Feature","geometry":{"type":"Point","coordinates":[101.772899,3.062273]},"properties":{"name":"SRI RAYA","line":"MRT","mode":"MRT"}},
{"type":"Feature","geometry":{"type":"Point","coordinates":[101.775109,3.048223]},"properties":{"name":"BANDAR TUN HUSSIEN ONN","line":"MRT","mode":"MRT"}},
{"type":"Feature","geometry":{"type":"Point","coordinates":[101.773383,3.041339]},"properties":{"name":"BATU 11 CHERAS","line":"MRT","mode":"MRT"}},
{"type":"Feature","geometry":{"type":"Point","coordinates":[101.771072,3.026413]},"properties":{"name":"BUKIT DUKUNG","line":"MRT","mode":"MRT"}},
{"type":"Feature","geometry":{"type":"Point","coordinates":[101.783857,3.000948]},"properties":{"name":"SUNGAI JERNIH","line":"MRT","mode":"MRT"}},
{"type":"Feature","geometry":{"type":"Point","coordinates":[101.786338,2.994514]},"properties":{"name":"STADIUM KAJANG","line":"MRT","mode":"MRT"}},
{"type":"Feature","geometry":{"type":"Point","coordinates":[101.790278,2.982778]},"properties":{"name":"KAJANG","line":"MRT","mode":"MRT"}},
{"type":"Feature","geometry":{"type":"Point","coordinates":[101.5721456,3.1763324]},"properties":{"name":"KWASA DAMANSARA","line":"PYL","mode":"MRT"}},
{"type":"Feature","geometry":{"type":"Point","coordinates":[101.578499,3.197266]},"properties":{"name":"KAMPUNG SELAMAT","line":"PYL","mode":"MRT"}},
{"type":"Feature","geometry":{"type":"Point","coordinates":[101.581779,3.206429]},"properties":{"name":"SUNGAI BULOH","line":"PYL","mode":"MRT"}},
{"type":"Feature","geometry":{"type":"Point","coordinates":[101.592623,3.199892]},"properties":{"name":"DAMANSARA DAMAI","line":"PYL","mode":"MRT"}},
{"type":"Feature","geometry":{"type":"Point","coordinates":[101.608302,3.198197]},"properties":{"name":"SRI DAMANSARA BARAT","line":"PYL","mode":"MRT"}},
{"type":"Feature","geometry":{"type":"Point","coordinates":[101.621396,3.198815]},"properties":{"name":"SRI DAMANSARA SENTRAL","line":"PYL","mode":"MRT"}},
{"type":"Feature","geometry":{"type":"Point","coordinates":[101.628716,3.207832]},"properties":{"name":"SRI DAMANSARA TIMUR","line":"PYL","mode":"MRT"}},
{"type":"Feature","geometry":{"type":"Point","coordinates":[101.639402,3.214438]},"properties":{"name":"METRO PRIMA","line":"PYL","mode":"MRT"}},
{"type":"Feature","geometry":{"type":"Point","coordinates":[101.648193,3.211663]},"properties":{"name":"KEPONG BARU","line":"PYL","mode":"MRT"}},
{"type":"Feature","geometry":{"type":"Point","coordinates":[101.655829,3.209544]},"properties":{"name":"JINJANG","line":"PYL","mode":"MRT"}},
{"type":"Feature","geometry":{"type":"Point","coordinates":[101.665749,3.207108]},"properties":{"name":"SRI DELIMA","line":"PYL","mode":"MRT"}},
{"type":"Feature","geometry":{"type":"Point","coordinates":[101.675473,3.205521]},"properties":{"name":"KAMPUNG BATU","line":"PYL","mode":"MRT"}},
{"type":"Feature","geometry":{"type":"Point","coordinates":[101.6797,3.19563]},"properties":{"name":"KENTOMEN","line":"PYL","mode":"MRT"}},
{"type":"Feature","geometry":{"type":"Point","coordinates":[101.681145,3.189319]},"properties":{"name":"JALAN IPOH","line":"PYL","mode":"MRT"}},
{"type":"Feature","geometry":{"type":"Point","coordinates":[101.684742,3.179369]},"properties":{"name":"SENTUL BARAT","line":"PYL","mode":"MRT"}},
{"type":"Feature","geometry":{"type":"Point","coordinates":[101.69581,3.17408]},"properties":{"name":"TITIWANGSA","line":"PYL","mode":"MRT"}},
{"type":"Feature","geometry":{"type":"Point","coordinates":[101.70239,3.17405]},"properties":{"name":"HOSPITAL KUALA LUMPUR","line":"PYL","mode":"MRT"}},
{"type":"Feature","geometry":{"type":"Point","coordinates":[101.71017,3.16794]},"properties":{"name":"RAJA UDA","line":"PYL","mode":"MRT"}},
{"type":"Feature","geometry":{"type":"Point","coordinates":[101.71781,3.16225]},"properties":{"name":"AMPANG PARK","line":"PYL","mode":"MRT"}},
{"type":"Feature","geometry":{"type":"Point","coordinates":[101.71834,3.15712]},"properties":{"name":"PERSIARAN KLCC","line":"PYL","mode":"MRT"}},
{"type":"Feature","geometry":{"type":"Point","coordinates":[101.71801,3.15145]},"properties":{"name":"CONLAY","line":"PYL","mode":"MRT"}},
{"type":"Feature","geometry":{"type":"Point","coordinates":[101.72034,3.14289]},"properties":{"name":"TUN RAZAK EXCHANGE","line":"PYL","mode":"MRT"}},
{"type":"Feature","geometry":{"type":"Point","coordinates":[101.71663,3.12839]},"properties":{"name":"CHAN SOW LIN","line":"PYL","mode":"MRT"}},
{"type":"Feature","geometry":{"type":"Point","coordinates":[101.694124,3.089546]},"properties":{"name":"KUCHAI","line":"PYL","mode":"MRT"}},
{"type":"Feature","geometry":{"type":"Point","coordinates":[101.699867,3.077688]},"properties":{"name":"TAMAN NAGA EMAS","line":"PYL","mode":"MRT"}},
{"type":"Feature","geometry":{"type":"Point","coordinates":[101.7084,3.063737]},"properties":{"name":"SUNGAI BESI","line":"PYL","mode":"MRT"}},
{"type":"Feature","geometry":{"type":"Point","coordinates":[101.704928,3.041674]},"properties":{"name":"SERDANG RAYA UTARA","line":"PYL","mode":"MRT"}},
{"type":"Feature","geometry":{"type":"Point","coordinates":[101.707514,3.028463]},"properties":{"name":"SERDANG RAYA SELATAN","line":"PYL","mode":"MRT"}},
{"type":"Feature","geometry":{"type":"Point","coordinates":[101.709,3.0216]},"properties":{"name":"SERDANG JAYA","line":"PYL","mode":"MRT"}},
{"type":"Feature","geometry":{"type":"Point","coordinates":[101.705396,3.008489]},"properties":{"name":"UPM","line":"PYL","mode":"MRT"}},
{"type":"Feature","geometry":{"type":"Point","coordinates":[101.67244,2.98942]},"properties":{"name":"TAMAN EQUINE","line":"PYL","mode":"MRT"}},
{"type":"Feature","geometry":{"type":"Point","coordinates":[101.66099,2.98339]},"properties":{"name":"PUTRA PERMAI","line":"PYL","mode":"MRT"}},
{"type":"Feature","geometry":{"type":"Point","coordinates":[101.654812,2.964974]},"properties":{"name":"16 SIERRA","line":"PYL","mode":"MRT"}},
{"type":"Feature","geometry":{"type":"Point","coordinates":[101.6573,2.95]},"properties":{"name":"CYBERJAYA UTARA","line":"PYL","mode":"MRT"}},
{"type":"Feature","geometry":{"type":"Point","coordinates":[101.6659,2.9384]},"properties":{"name":"CYBERJAYA CITY CENTRE","line":"PYL","mode":"MRT"}},
{"type":"Feature","geometry":{"type":"Point","coordinates":[101.6715,2.9313]},"properties":{"name":"PUTRAJAYA SENTRAL","line":"PYL","mode":"MRT"}},
{"type":"Feature","geometry":{"type":"Point","coordinates":[101.687817,3.132852]},"properties":{"name":"KL SENTRAL","line":"MR","mode":"MR"}},
{"type":"Feature","geometry":{"type":"Point","coordinates":[101.69085,3.13132]},"properties":{"name":"TUN SAMBANTHAN","line":"MR","mode":"MR"}},
{"type":"Feature","geometry":{"type":"Point","coordinates":[101.699268,3.138743]},"properties":{"name":"MAHARAJALELA","line":"MR","mode":"MR"}},
{"type":"Feature","geometry":{"type":"Point","coordinates":[101.706029,3.140511]},"properties":{"name":"HANG TUAH","line":"MR","mode":"MR"}},
{"type":"Feature","geometry":{"type":"Point","coordinates":[101.70945,3.14283]},"properties":{"name":"IMBI","line":"MR","mode":"MR"}},
{"type":"Feature","geometry":{"type":"Point","coordinates":[101.7115,3.146022]},"properties":{"name":"BUKIT BINTANG ","line":"MR","mode":"MR"}},
{"type":"Feature","geometry":{"type":"Point","coordinates":[101.710432,3.150878]},"properties":{"name":"RAJA CHULAN","line":"MR","mode":"MR"}},
{"type":"Feature","geometry":{"type":"Point","coordinates":[101.704809,3.156214]},"properties":{"name":"BUKIT NANAS","line":"MR","mode":"MR"}},
{"type":"Feature","geometry":{"type":"Point","coordinates":[101.69888,3.15935]},"properties":{"name":"MEDAN TUANKU","line":"MR","mode":"MR"}},
{"type":"Feature","geometry":{"type":"Point","coordinates":[101.698379,3.167358]},"properties":{"name":"CHOW KIT","line":"MR","mode":"MR"}},
{"type":"Feature","geometry":{"type":"Point","coordinates":[101.696022,3.173192]},"properties":{"name":"TITIWANGSA","line":"MR","mode":"MR"}}
]}